{"nhits": 31, "parameters": {"dataset": "244400404_parkings-publics-nantes-disponibilites", "rows": 10, "start": 0, "facet": ["grp_nom", "grp_statut", "grp_identifiant", "grp_disponible", "grp_exploitation", "grp_complet", "grp_horodatage", "idobj", "location", "disponibilite"], "format": "json", "timezone": "UTC"}, "records": [{"datasetid": "244400404_parkings-publics-nantes-disponibilites", "recordid": "af65331372e0b67f6810f326bf61b2fd72dd2f99", "fields": {"grp_disponible": 190, "grp_nom": "Talensac", "grp_statut": 5, "grp_identifiant": "008", "disponibilite": 190, "idobj": "1046", "grp_complet": 9, "grp_exploitation": 320, "location": [47.220255974, -1.5583572969999864], "grp_horodatage": "2022-10-12T15:53:40+00:00"}, "geometry": {"type": "Point", "coordinates": [-1.5583572969999864, 47.220255974]}, "record_timestamp": "2022-10-12T13:54:00Z"}, {"datasetid": "244400404_parkings-publics-nantes-disponibilites", "recordid": "0724abae1399f0fbda4efb5b8b558d6ece928a45", "fields": {"grp_disponible": 326, "grp_nom": "Cit\u00e9 des Congr\u00e8s", "grp_statut": 5, "grp_identifiant": "009", "disponibilite": 326, "idobj": "1044", "grp_complet": 10, "grp_exploitation": 420, "location": [47.212901665000004, -1.5439712740000004], "grp_horodatage": "2022-10-12T15:53:40+00:00"}, "geometry": {"type": "Point", "coordinates": [-1.5439712740000004, 47.212901665000004]}, "record_timestamp": "2022-10-12T13:54:00Z"}, {"datasetid": "244400404_parkings-publics-nantes-disponibilites", "recordid": "f9bef09e8b83cf2b13dd4be21e3a93c41b9d7750", "fields": {"grp_disponible": 146, "grp_nom": "Cath\u00e9drale", "grp_statut": 5, "grp_identifiant": "010", "disponibilite": 146, "idobj": "3652", "grp_complet": 0, "grp_exploitation": 371, "location": [47.22081334400002, -1.5510561649999772], "grp_horodatage": "2022-10-12T15:53:40+00:00"}, "geometry": {"type": "Point", "coordinates": [-1.5510561649999772, 47.22081334400002]}, "record_timestamp": "2022-10-12T13:54:00Z"}, {"datasetid": "244400404_parkings-publics-nantes-disponibilites", "recordid": "0642078f14fe46abb68df27ce82daea2d4eac881", "fields": {"grp_disponible": 0, "grp_nom": "Gare Canal", "grp_statut": 0, "grp_identifiant": "026", "idobj": "3589", "disponibilite": -1, "grp_complet": 0, "grp_exploitation": 0, "grp_horodatage": "2022-10-12T15:50:35+00:00"}, "record_timestamp": "2022-10-12T13:54:00Z"}, {"datasetid": "244400404_parkings-publics-nantes-disponibilites", "recordid": "bccd6eb7f87ce5774a04fc0575ec7f513936c1eb", "fields": {"grp_disponible": 23, "grp_nom": "Baco-LU 2", "grp_statut": 5, "grp_identifiant": "036", "disponibilite": 23, "idobj": "3551", "grp_complet": 10, "grp_exploitation": 118, "location": [47.21315097399997, -1.5516042549999725], "grp_horodatage": "2022-10-12T15:53:40+00:00"}, "geometry": {"type": "Point", "coordinates": [-1.5516042549999725, 47.21315097399997]}, "record_timestamp": "2022-10-12T13:54:00Z"}, {"datasetid": "244400404_parkings-publics-nantes-disponibilites", "recordid": "507f096a32ab104976bcec9017791cdf5c670532", "fields": {"grp_disponible": 101, "grp_nom": "Feydeau", "grp_statut": 5, "grp_identifiant": "001", "disponibilite": 101, "idobj": "4320", "grp_complet": 10, "grp_exploitation": 380, "location": [47.21407529499999, -1.552558781000016], "grp_horodatage": "2022-10-12T15:53:40+00:00"}, "geometry": {"type": "Point", "coordinates": [-1.552558781000016, 47.21407529499999]}, "record_timestamp": "2022-10-12T13:54:00Z"}, {"datasetid": "244400404_parkings-publics-nantes-disponibilites", "recordid": "f61e6016d71137de83c614f4f89f342f1d932639", "fields": {"grp_disponible": 327, "grp_nom": "Tour Bretagne", "grp_statut": 5, "grp_identifiant": "003", "disponibilite": 327, "idobj": "299", "grp_complet": 10, "grp_exploitation": 643, "location": [47.21784288800001, -1.5582500169999776], "grp_horodatage": "2022-10-12T15:53:40+00:00"}, "geometry": {"type": "Point", "coordinates": [-1.5582500169999776, 47.21784288800001]}, "record_timestamp": "2022-10-12T13:54:00Z"}, {"datasetid": "244400404_parkings-publics-nantes-disponibilites", "recordid": "0cc3460abaf28831e7da815b88db4b18c9de36cd", "fields": {"grp_disponible": 186, "grp_nom": "M\u00e9diath\u00e8que", "grp_statut": 5, "grp_identifiant": "006", "disponibilite": 186, "idobj": "134", "grp_complet": 10, "grp_exploitation": 398, "location": [47.210870821000015, -1.56233817399999], "grp_horodatage": "2022-10-12T15:53:40+00:00"}, "geometry": {"type": "Point", "coordinates": [-1.56233817399999, 47.210870821000015]}, "record_timestamp": "2022-10-12T13:54:00Z"}, {"datasetid": "244400404_parkings-publics-nantes-disponibilites", "recordid": "8a16d53d43584e67639db94b1a4347ddf165143a", "fields": {"grp_disponible": 254, "grp_nom": "Commerce", "grp_statut": 5, "grp_identifiant": "007", "disponibilite": 254, "idobj": "677", "grp_complet": 7, "grp_exploitation": 409, "location": [47.21312028, -1.557713217000014], "grp_horodatage": "2022-10-12T15:53:40+00:00"}, "geometry": {"type": "Point", "coordinates": [-1.557713217000014, 47.21312028]}, "record_timestamp": "2022-10-12T13:54:00Z"}, {"datasetid": "244400404_parkings-publics-nantes-disponibilites", "recordid": "fd31f0ba9fc5344ee0d5ddf443d68cca6edcfcec", "fields": {"grp_disponible": 333, "grp_nom": "Les machines", "grp_statut": 5, "grp_identifiant": "011", "disponibilite": 333, "idobj": "3951", "grp_complet": 2, "grp_exploitation": 397, "location": [47.20590061600001, -1.5627277899999967], "grp_horodatage": "2022-10-12T15:53:40+00:00"}, "geometry": {"type": "Point", "coordinates": [-1.5627277899999967, 47.20590061600001]}, "record_timestamp": "2022-10-12T13:54:00Z"}], "facet_groups": [{"name": "grp_nom", "facets": [{"name": "Aristide Briand", "count": 1, "state": "displayed", "path": "Aristide Briand"}, {"name": "Baco-LU 1", "count": 1, "state": "displayed", "path": "Baco-LU 1"}, {"name": "Baco-LU 2", "count": 1, "state": "displayed", "path": "Baco-LU 2"}, {"name": "Bellamy", "count": 1, "state": "displayed", "path": "Bellamy"}, {"name": "CHU 1", "count": 1, "state": "displayed", "path": "CHU 1"}, {"name": "CHU 2", "count": 1, "state": "displayed", "path": "CHU 2"}, {"name": "Cath\u00e9drale", "count": 1, "state": "displayed", "path": "Cath\u00e9drale"}, {"name": "Chantiers Navals", "count": 1, "state": "displayed", "path": "Chantiers Navals"}, {"name": "Ch\u00e2teau", "count": 1, "state": "displayed", "path": "Ch\u00e2teau"}, {"name": "Cit\u00e9 des Congr\u00e8s", "count": 1, "state": "displayed", "path": "Cit\u00e9 des Congr\u00e8s"}, {"name": "Commerce", "count": 1, "state": "displayed", "path": "Commerce"}, {"name": "Decr\u00e9-Bouffay", "count": 1, "state": "displayed", "path": "Decr\u00e9-Bouffay"}, {"name": "Descartes", "count": 1, "state": "displayed", "path": "Descartes"}, {"name": "Feydeau", "count": 1, "state": "displayed", "path": "Feydeau"}, {"name": "Fonderies", "count": 1, "state": "displayed", "path": "Fonderies"}, {"name": "Gare Canal", "count": 1, "state": "displayed", "path": "Gare Canal"}, {"name": "Gare Nord", "count": 1, "state": "displayed", "path": "Gare Nord"}, {"name": "Gare Sud 1", "count": 1, "state": "displayed", "path": "Gare Sud 1"}, {"name": "Gare Sud 2", "count": 1, "state": "displayed", "path": "Gare Sud 2"}, {"name": "Gare Sud 2 : Limit\u00e9 1h", "count": 1, "state": "displayed", "path": "Gare Sud 2 : Limit\u00e9 1h"}, {"name": "Gare Sud 3", "count": 1, "state": "displayed", "path": "Gare Sud 3"}, {"name": "Gare Sud 4", "count": 1, "state": "displayed", "path": "Gare Sud 4"}, {"name": "Gloriette 1", "count": 1, "state": "displayed", "path": "Gloriette 1"}, {"name": "Gloriette 2", "count": 1, "state": "displayed", "path": "Gloriette 2"}, {"name": "Graslin", "count": 1, "state": "displayed", "path": "Graslin"}, {"name": "H\u00f4tel Dieu", "count": 1, "state": "displayed", "path": "H\u00f4tel Dieu"}, {"name": "Les Nefs", "count": 1, "state": "displayed", "path": "Les Nefs"}, {"name": "Les machines", "count": 1, "state": "displayed", "path": "Les machines"}, {"name": "M\u00e9diath\u00e8que", "count": 1, "state": "displayed", "path": "M\u00e9diath\u00e8que"}, {"name": "Talensac", "count": 1, "state": "displayed", "path": "Talensac"}, {"name": "Tour Bretagne", "count": 1, "state": "displayed", "path": "Tour Bretagne"}]}, {"name": "grp_statut", "facets": [{"name": "5", "count": 28, "state": "displayed", "path": "5"}, {"name": "0", "count": 2, "state": "displayed", "path": "0"}, {"name": "2", "count": 1, "state": "displayed", "path": "2"}]}, {"name": "grp_identifiant", "facets": [{"name": "001", "count": 1, "state": "displayed", "path": "001"}, {"name": "002", "count": 1, "state": "displayed", "path": "002"}, {"name": "003", "count": 1, "state": "displayed", "path": "003"}, {"name": "004", "count": 1, "state": "displayed", "path": "004"}, {"name": "005", "count": 1, "state": "displayed", "path": "005"}, {"name": "006", "count": 1, "state": "displayed", "path": "006"}, {"name": "007", "count": 1, "state": "displayed", "path": "007"}, {"name": "008", "count": 1, "state": "displayed", "path": "008"}, {"name": "009", "count": 1, "state": "displayed", "path": "009"}, {"name": "010", "count": 1, "state": "displayed", "path": "010"}, {"name": "011", "count": 1, "state": "displayed", "path": "011"}, {"name": "012", "count": 1, "state": "displayed", "path": "012"}, {"name": "014", "count": 1, "state": "displayed", "path": "014"}, {"name": "015", "count": 1, "state": "displayed", "path": "015"}, {"name": "016", "count": 1, "state": "displayed", "path": "016"}, {"name": "017", "count": 1, "state": "displayed", "path": "017"}, {"name": "021", "count": 1, "state": "displayed", "path": "021"}, {"name": "025", "count": 1, "state": "displayed", "path": "025"}, {"name": "026", "count": 1, "state": "displayed", "path": "026"}, {"name": "027", "count": 1, "state": "displayed", "path": "027"}, {"name": "029", "count": 1, "state": "displayed", "path": "029"}, {"name": "030", "count": 1, "state": "displayed", "path": "030"}, {"name": "034", "count": 1, "state": "displayed", "path": "034"}, {"name": "035", "count": 1, "state": "displayed", "path": "035"}, {"name": "036", "count": 1, "state": "displayed", "path": "036"}, {"name": "037", "count": 1, "state": "displayed", "path": "037"}, {"name": "039", "count": 1, "state": "displayed", "path": "039"}, {"name": "040", "count": 1, "state": "displayed", "path": "040"}, {"name": "042", "count": 1, "state": "displayed", "path": "042"}, {"name": "044", "count": 1, "state": "displayed", "path": "044"}, {"name": "047", "count": 1, "state": "displayed", "path": "047"}]}, {"name": "grp_disponible", "facets": [{"name": "0", "count": 3, "state": "displayed", "path": "0"}, {"name": "189", "count": 2, "state": "displayed", "path": "189"}, {"name": "23", "count": 1, "state": "displayed", "path": "23"}, {"name": "25", "count": 1, "state": "displayed", "path": "25"}, {"name": "32", "count": 1, "state": "displayed", "path": "32"}, {"name": "33", "count": 1, "state": "displayed", "path": "33"}, {"name": "35", "count": 1, "state": "displayed", "path": "35"}, {"name": "36", "count": 1, "state": "displayed", "path": "36"}, {"name": "37", "count": 1, "state": "displayed", "path": "37"}, {"name": "43", "count": 1, "state": "displayed", "path": "43"}, {"name": "65", "count": 1, "state": "displayed", "path": "65"}, {"name": "67", "count": 1, "state": "displayed", "path": "67"}, {"name": "73", "count": 1, "state": "displayed", "path": "73"}, {"name": "76", "count": 1, "state": "displayed", "path": "76"}, {"name": "101", "count": 1, "state": "displayed", "path": "101"}, {"name": "108", "count": 1, "state": "displayed", "path": "108"}, {"name": "139", "count": 1, "state": "displayed", "path": "139"}, {"name": "146", "count": 1, "state": "displayed", "path": "146"}, {"name": "186", "count": 1, "state": "displayed", "path": "186"}, {"name": "190", "count": 1, "state": "displayed", "path": "190"}, {"name": "193", "count": 1, "state": "displayed", "path": "193"}, {"name": "232", "count": 1, "state": "displayed", "path": "232"}, {"name": "254", "count": 1, "state": "displayed", "path": "254"}, {"name": "270", "count": 1, "state": "displayed", "path": "270"}, {"name": "274", "count": 1, "state": "displayed", "path": "274"}, {"name": "326", "count": 1, "state": "displayed", "path": "326"}, {"name": "327", "count": 1, "state": "displayed", "path": "327"}, {"name": "333", "count": 1, "state": "displayed", "path": "333"}]}, {"name": "grp_exploitation", "facets": [{"name": "0", "count": 2, "state": "displayed", "path": "0"}, {"name": "76", "count": 2, "state": "displayed", "path": "76"}, {"name": "380", "count": 2, "state": "displayed", "path": "380"}, {"name": "44", "count": 1, "state": "displayed", "path": "44"}, {"name": "60", "count": 1, "state": "displayed", "path": "60"}, {"name": "61", "count": 1, "state": "displayed", "path": "61"}, {"name": "92", "count": 1, "state": "displayed", "path": "92"}, {"name": "98", "count": 1, "state": "displayed", "path": "98"}, {"name": "100", "count": 1, "state": "displayed", "path": "100"}, {"name": "118", "count": 1, "state": "displayed", "path": "118"}, {"name": "130", "count": 1, "state": "displayed", "path": "130"}, {"name": "135", "count": 1, "state": "displayed", "path": "135"}, {"name": "170", "count": 1, "state": "displayed", "path": "170"}, {"name": "204", "count": 1, "state": "displayed", "path": "204"}, {"name": "251", "count": 1, "state": "displayed", "path": "251"}, {"name": "320", "count": 1, "state": "displayed", "path": "320"}, {"name": "350", "count": 1, "state": "displayed", "path": "350"}, {"name": "371", "count": 1, "state": "displayed", "path": "371"}, {"name": "397", "count": 1, "state": "displayed", "path": "397"}, {"name": "398", "count": 1, "state": "displayed", "path": "398"}, {"name": "405", "count": 1, "state": "displayed", "path": "405"}, {"name": "409", "count": 1, "state": "displayed", "path": "409"}, {"name": "420", "count": 1, "state": "displayed", "path": "420"}, {"name": "457", "count": 1, "state": "displayed", "path": "457"}, {"name": "486", "count": 1, "state": "displayed", "path": "486"}, {"name": "508", "count": 1, "state": "displayed", "path": "508"}, {"name": "562", "count": 1, "state": "displayed", "path": "562"}, {"name": "643", "count": 1, "state": "displayed", "path": "643"}]}, {"name": "grp_complet", "facets": [{"name": "2", "count": 8, "state": "displayed", "path": "2"}, {"name": "10", "count": 8, "state": "displayed", "path": "10"}, {"name": "0", "count": 3, "state": "displayed", "path": "0"}, {"name": "5", "count": 3, "state": "displayed", "path": "5"}, {"name": "7", "count": 2, "state": "displayed", "path": "7"}, {"name": "9", "count": 2, "state": "displayed", "path": "9"}, {"name": "3", "count": 1, "state": "displayed", "path": "3"}, {"name": "4", "count": 1, "state": "displayed", "path": "4"}, {"name": "6", "count": 1, "state": "displayed", "path": "6"}, {"name": "8", "count": 1, "state": "displayed", "path": "8"}, {"name": "25", "count": 1, "state": "displayed", "path": "25"}]}, {"name": "grp_horodatage", "facets": [{"name": "2022", "count": 31, "state": "displayed", "path": "2022"}]}, {"name": "idobj", "facets": [{"name": "1043", "count": 1, "state": "displayed", "path": "1043"}, {"name": "1044", "count": 1, "state": "displayed", "path": "1044"}, {"name": "1045", "count": 1, "state": "displayed", "path": "1045"}, {"name": "1046", "count": 1, "state": "displayed", "path": "1046"}, {"name": "134", "count": 1, "state": "displayed", "path": "134"}, {"name": "280", "count": 1, "state": "displayed", "path": "280"}, {"name": "284", "count": 1, "state": "displayed", "path": "284"}, {"name": "288", "count": 1, "state": "displayed", "path": "288"}, {"name": "299", "count": 1, "state": "displayed", "path": "299"}, {"name": "3549", "count": 1, "state": "displayed", "path": "3549"}, {"name": "3550", "count": 1, "state": "displayed", "path": "3550"}, {"name": "3551", "count": 1, "state": "displayed", "path": "3551"}, {"name": "3554", "count": 1, "state": "displayed", "path": "3554"}, {"name": "3555", "count": 1, "state": "displayed", "path": "3555"}, {"name": "3589", "count": 1, "state": "displayed", "path": "3589"}, {"name": "3590", "count": 1, "state": "displayed", "path": "3590"}, {"name": "3650", "count": 1, "state": "displayed", "path": "3650"}, {"name": "3651", "count": 1, "state": "displayed", "path": "3651"}, {"name": "3652", "count": 1, "state": "displayed", "path": "3652"}, {"name": "3951", "count": 1, "state": "displayed", "path": "3951"}, {"name": "3989", "count": 1, "state": "displayed", "path": "3989"}, {"name": "4072", "count": 1, "state": "displayed", "path": "4072"}, {"name": "4073", "count": 1, "state": "displayed", "path": "4073"}, {"name": "4142", "count": 1, "state": "displayed", "path": "4142"}, {"name": "4319", "count": 1, "state": "displayed", "path": "4319"}, {"name": "4320", "count": 1, "state": "displayed", "path": "4320"}, {"name": "5022", "count": 1, "state": "displayed", "path": "5022"}, {"name": "5533", "count": 1, "state": "displayed", "path": "5533"}, {"name": "5552", "count": 1, "state": "displayed", "path": "5552"}, {"name": "5840", "count": 1, "state": "displayed", "path": "5840"}, {"name": "677", "count": 1, "state": "displayed", "path": "677"}]}, {"name": "disponibilite", "facets": [{"name": "-1", "count": 2, "state": "displayed", "path": "-1"}, {"name": "189", "count": 2, "state": "displayed", "path": "189"}, {"name": "0", "count": 1, "state": "displayed", "path": "0"}, {"name": "23", "count": 1, "state": "displayed", "path": "23"}, {"name": "25", "count": 1, "state": "displayed", "path": "25"}, {"name": "32", "count": 1, "state": "displayed", "path": "32"}, {"name": "33", "count": 1, "state": "displayed", "path": "33"}, {"name": "35", "count": 1, "state": "displayed", "path": "35"}, {"name": "36", "count": 1, "state": "displayed", "path": "36"}, {"name": "37", "count": 1, "state": "displayed", "path": "37"}, {"name": "43", "count": 1, "state": "displayed", "path": "43"}, {"name": "65", "count": 1, "state": "displayed", "path": "65"}, {"name": "67", "count": 1, "state": "displayed", "path": "67"}, {"name": "73", "count": 1, "state": "displayed", "path": "73"}, {"name": "76", "count": 1, "state": "displayed", "path": "76"}, {"name": "101", "count": 1, "state": "displayed", "path": "101"}, {"name": "108", "count": 1, "state": "displayed", "path": "108"}, {"name": "139", "count": 1, "state": "displayed", "path": "139"}, {"name": "146", "count": 1, "state": "displayed", "path": "146"}, {"name": "186", "count": 1, "state": "displayed", "path": "186"}, {"name": "190", "count": 1, "state": "displayed", "path": "190"}, {"name": "193", "count": 1, "state": "displayed", "path": "193"}, {"name": "232", "count": 1, "state": "displayed", "path": "232"}, {"name": "254", "count": 1, "state": "displayed", "path": "254"}, {"name": "270", "count": 1, "state": "displayed", "path": "270"}, {"name": "274", "count": 1, "state": "displayed", "path": "274"}, {"name": "326", "count": 1, "state": "displayed", "path": "326"}, {"name": "327", "count": 1, "state": "displayed", "path": "327"}, {"name": "333", "count": 1, "state": "displayed", "path": "333"}]}]}